[
  {
    "name": "Blessing",
    "phone": "09876543234",
    "location": "Ogun/abk",
    "pin": "1234",
    "type": "farmer",
    "farm_size": 3000.0,
    "primary_crops": [
      "tomato",
      "maize"
    ]
  },
  {
    "name": "Dominion",
    "phone": "09012345678",
    "location": "Ogun/saki",
    "pin": "1234",
    "type": "farmer",
    "farm_size": 5000.0,
    "primary_crops": [
      "tomato",
      "rice"
    ]
  },
  {
    "name": "David",
    "phone": "09087654321",
    "location": "lagos,ajah",
    "pin": "5678",
    "type": "buyer",
    "business_name": "bolu enterprise"
  },
  {
    "name": "sayo",
    "phone": "09015485392",
    "location": "ogun, ifo",
    "pin": "5678",
    "type": "farmer",
    "language": "en",
    "farm_size": 9000.0,
    "primary_crops": [
      "rice",
      "beans"
    ]
  },
  {
    "name": "Blessing James",
    "phone": "09015485395",
    "location": "Abeokuta",
    "pin": "5395",
    "type": "farmer",
    "language": "en",
    "farm_size": 86000.0,
    "primary_crops": [
      "yam",
      "potato"
    ]
  },
  {
    "name": "dammy",
    "phone": "091234567890",
    "location": "lagos, mushin",
    "pin": "7890",
    "type": "farmer",
    "language": "en",
    "farm_size": 90700.0,
    "primary_crops": [
      "carrot",
      "beans"
    ]
  },
  {
    "name": "Blessing Taiwoo",
    "phone": "09015485393",
    "location": "Lagos",
    "pin": "5393",
    "type": "farmer",
    "language": "en",
    "farm_size": 80000.0,
    "primary_crops": [
      "pepper",
      "ginger"
    ]
  },
  {
    "name": "taye john",
    "phone": "08034567890",
    "location": "ogun, siun",
    "pin": "5432",
    "type": "buyer_role",
    "language": "en",
    "business_name": "jeolad"
  },
  {
    "name": "ade mike",
    "phone": "08077887788",
    "location": "ondo",
    "pin": "7788",
    "type": "farmer_role",
    "language": "en",
    "farm_size": 300.0,
    "primary_crops": [
      "rice"
    ]
  },
  {
    "name": "ade louise",
    "phone": "08077887789",
    "location": "ekiti",
    "pin": "7789",
    "type": "farmer_role",
    "language": "en",
    "farm_size": 0.0,
    "primary_crops": [
      "rice",
      "ginger"
    ]
  },
  {
    "name": "precious",
    "phone": "07035468778",
    "location": "warri",
    "pin": "7000",
    "type": "buyer_role",
    "language": "en",
    "business_name": "okon and sons"
  }
]